City_ID,City,Lat,Lng,Max Temp,Humidity,Cloudiness,Wind Speed,Country,Date
0,Afaahiti,-17.75,-149.2833,21.93,75,94,7.61,PF,1691596855
1,Adamstown,-25.066,-130.1015,20.12,67,60,10.66,PN,1691596955
2,Edinburgh Of The Seven Seas,-37.0676,-12.3116,11.06,67,40,9.44,SH,1691596501
3,Arkhangel'Sk,64.5401,40.5433,22.88,59,1,1.71,RU,1691596955
4,Marica,-22.9194,-42.8186,23.97,72,86,6.3,BR,1691596956
5,Waitangi,-43.9535,-176.5597,8.79,83,58,3.13,NZ,1691596495
6,Lerwick,60.1545,-1.1494,13.0,74,100,12.6,GB,1691596956
7,Hermanus,-34.4187,19.2345,17.11,77,0,4.41,ZA,1691596956
8,Port-Aux-Francais,-49.35,70.2167,2.44,75,20,8.47,TF,1691596501
9,Chonchi,-42.6128,-73.8092,11.18,92,100,7.64,CL,1691596861
10,Kodiak,57.79,-152.4072,11.73,94,100,1.54,US,1691596884
11,Holualoa,19.6228,-155.9522,23.91,78,100,5.14,US,1691596610
12,Villa Gesell,-37.2639,-56.973,16.7,70,75,6.63,AR,1691596957
13,Colonia,50.9333,6.95,24.42,50,0,3.6,DE,1691596478
14,Puerto Ayora,-0.7393,-90.3518,26.98,84,97,2.68,EC,1691596508
15,Laguna De Perlas,12.3429,-83.6712,27.93,85,98,3.3,NI,1691596957
16,Ust-Nera,64.5667,143.2,12.08,77,38,1.76,RU,1691596541
17,Dudinka,69.4058,86.1778,20.9,58,70,6.13,RU,1691596561
18,Lebu,-37.6167,-73.65,13.51,72,100,8.02,CL,1691596645
19,Ushuaia,-54.8,-68.3,3.81,81,0,0.51,AR,1691596503
20,Blackmans Bay,-43.0167,147.3167,12.07,68,100,2.93,AU,1691596535
21,Samalut,28.3121,30.7101,37.22,14,0,4.56,EG,1691596958
22,Neyshabur,36.2133,58.7958,28.9,19,57,4.58,IR,1691596958
23,Urangan,-25.3,152.9,17.1,72,13,3.37,AU,1691596959
24,Kupang,-10.1667,123.5833,23.44,77,21,4.89,ID,1691596605
25,La Sarre,48.8002,-79.1996,24.57,46,19,4.21,CA,1691596959
26,Veinticinco De Mayo,-35.4323,-60.1727,17.77,60,46,3.13,AR,1691596959
27,Iqaluit,63.7506,-68.5145,4.85,86,100,3.09,CA,1691596959
28,Isafjordur,66.0755,-23.124,14.02,51,0,6.69,IS,1691596521
29,Petropavlovsk-Kamchatsky,53.0452,158.6483,13.33,77,0,4.0,RU,1691596959
30,Nogliki,51.8333,143.1667,13.0,88,100,4.49,RU,1691596960
31,Portland,45.5234,-122.6762,22.12,71,20,1.54,US,1691596152
32,Antsiranana,-12.2787,49.2917,25.42,57,20,5.14,MG,1691596960
33,Nizhnesortymskiy,62.4397,71.7603,12.87,55,41,5.71,RU,1691596960
34,Bethel,41.3712,-73.414,27.9,60,20,3.09,US,1691596509
35,Kirensk,57.7853,108.1119,17.38,90,100,1.08,RU,1691596713
36,Klyuchi,52.2667,79.1667,23.32,38,48,2.83,RU,1691596961
37,Bereznik,62.8551,42.7072,22.55,70,20,1.76,RU,1691596961
38,Olonkinbyen,70.9221,-8.7187,5.86,99,96,4.6,SJ,1691596961
39,Papao,-17.75,-149.55,22.82,73,94,7.73,PF,1691596961
40,Bechar,31.6167,-2.2167,41.18,8,40,2.06,DZ,1691596961
41,Uturoa,-16.7333,-151.4333,25.42,70,82,8.41,PF,1691596845
42,Thompson,55.7435,-97.8558,13.09,62,20,6.69,CA,1691596537
43,Puerto Natales,-51.7236,-72.4875,3.3,91,100,0.43,CL,1691596517
44,Dryden,49.7833,-92.7503,17.16,67,40,3.6,CA,1691596962
45,Kapuskasing,49.4169,-82.4331,17.05,88,100,4.12,CA,1691596922
46,Farafangana,-22.8167,47.8333,20.61,85,42,3.45,MG,1691596962
47,Inarajan Village,13.2736,144.7484,26.89,97,100,6.04,GU,1691596963
48,Papatowai,-46.5619,169.4708,2.34,80,88,3.01,NZ,1691596963
49,Carnarvon,-24.8667,113.6333,20.15,76,87,5.77,AU,1691596963
50,Port Mathurin,-19.6833,63.4167,22.96,64,45,9.02,MU,1691596535
51,Howard Springs,-12.497,131.047,23.95,78,90,1.58,AU,1691596963
52,St. John'S,47.5649,-52.7093,15.44,88,100,4.12,CA,1691596952
53,College,64.8569,-147.8028,15.97,94,100,1.54,US,1691596536
54,Sandnessjoen,66.0217,12.6316,22.06,35,20,7.2,NO,1691596964
55,Island Harbour,50.724,-1.2758,23.35,70,73,2.24,GB,1691596964
56,Avarua,-21.2078,-159.775,22.03,73,75,6.69,CK,1691596855
57,Port Alfred,-33.5906,26.891,17.32,78,84,3.13,ZA,1691596576
58,Yellowknife,62.456,-114.3525,18.29,55,100,5.66,CA,1691596546
59,Waingapu,-9.6567,120.2641,22.71,85,5,4.2,ID,1691596965
60,Jamestown,42.097,-79.2353,25.01,67,40,5.14,US,1691596711
61,Tiksi,71.6872,128.8694,15.79,54,15,3.42,RU,1691596516
62,Invercargill,-46.4,168.35,1.12,93,100,1.79,NZ,1691596830
63,Roanoke Rapids,36.4615,-77.6542,30.48,65,0,0.0,US,1691596965
64,Okhotsk,59.3833,143.3,11.85,78,7,0.87,RU,1691596702
65,Georgetown,5.4112,100.3354,28.96,88,40,3.13,MY,1691596357
66,Laibin,23.7,109.2667,26.91,90,65,1.59,CN,1691596966
67,Valparaiso,-33.0393,-71.6273,15.0,81,100,2.06,CL,1691596966
68,La Tuque,47.4334,-72.7824,16.14,77,79,4.63,CA,1691596966
69,San Joaquin,37.9333,-121.3011,20.67,73,0,0.0,US,1691596966
70,Kununurra,-15.7667,128.7333,15.99,77,13,2.06,AU,1691596966
71,Whitehorse,60.7161,-135.0538,12.28,79,40,4.12,CA,1691596966
72,Nellore,14.4333,79.9667,30.46,62,95,3.18,IN,1691596967
73,Nantucket,41.2835,-70.0995,25.06,64,75,8.75,US,1691596967
74,Berezovo,63.9381,65.0419,13.61,64,44,2.72,RU,1691596967
75,Gadzhiyevo,69.2551,33.3362,23.93,62,2,1.89,RU,1691596967
76,Lugovoy,42.9472,72.7644,27.15,32,24,2.89,KZ,1691596967
77,Marsa Alam,25.0757,34.8918,32.92,55,1,2.29,EG,1691596968
78,Anadyr,64.75,177.4833,8.28,87,75,6.71,RU,1691596968
79,Bilibino,68.0546,166.4372,7.59,60,100,1.71,RU,1691596694
80,Essaouira,31.5125,-9.77,31.72,73,20,6.17,MA,1691596657
81,Saipan,15.1355,145.701,27.39,100,100,4.12,MP,1691596968
82,Flying Fish Cove,-10.4217,105.6791,23.82,88,75,6.17,CX,1691596573
83,Christchurch,-43.5333,172.6333,4.39,82,75,4.12,NZ,1691596792
84,Itoman,26.1247,127.6694,27.43,100,75,4.12,JP,1691596872
85,Qaqortoq,60.7167,-46.0333,7.98,68,25,3.19,GL,1691596568
86,Belyy Yar,53.6039,91.3903,20.94,68,0,2.0,RU,1691596969
87,Abu Zabad,12.35,29.25,30.05,52,37,2.42,SD,1691596969
88,Longyearbyen,78.2186,15.6401,9.91,66,0,5.66,SJ,1691596534
89,West Island,-12.1568,96.8225,24.99,83,40,5.14,CC,1691596969
90,Kashkhatau,43.3185,43.608,29.31,66,8,2.86,RU,1691596969
91,As Saffaniyah,27.9708,48.73,35.24,42,0,3.28,SA,1691596927
92,Ribeira Grande,38.5167,-28.7,25.43,83,20,6.17,PT,1691596496
93,Gutao,37.2025,112.1781,23.47,76,59,1.86,CN,1691596970
94,Ilulissat,69.2167,-51.1,5.9,62,1,1.8,GL,1691596676
95,Newport,51.5877,-2.9984,25.16,75,60,3.0,GB,1691596380
96,Acarau,-2.8856,-40.12,26.7,79,59,9.44,BR,1691596838
97,Mejit,10.2753,170.8646,27.8,71,84,5.11,MH,1691596970
98,Solnechnyy,50.7214,136.6319,13.65,83,86,2.9,RU,1691596971
99,Taroa,8.7058,171.2275,27.43,77,34,3.72,MH,1691596564
100,Grytviken,-54.2811,-36.5092,-4.63,72,12,3.61,GS,1691596519
101,Wailua Homesteads,22.0669,-159.378,26.44,82,75,8.75,US,1691596567
102,Udachny,66.4167,112.4,19.14,48,0,4.25,RU,1691596962
103,Phek,25.6667,94.5,17.31,99,84,0.63,IN,1691596971
104,Puli,23.9664,120.9695,26.23,92,95,0.46,TW,1691596972
105,Katabu,-4.9333,122.5167,24.45,77,85,2.8,ID,1691596972
106,Nuits-Saint-Georges,47.1333,4.95,27.55,47,0,6.69,FR,1691596972
107,Cidreira,-30.1811,-50.2056,15.95,95,100,9.79,BR,1691596732
108,Naryn,41.4287,75.9911,15.5,44,6,2.86,KG,1691596972
109,Tananger,58.9333,5.6,13.49,86,40,7.72,NO,1691596972
110,Pogar,52.554,33.2591,18.97,62,8,3.4,RU,1691596973
111,Anqing,30.5092,117.0506,25.41,77,8,1.61,CN,1691596828
112,Hawaiian Paradise Park,19.5933,-154.9731,22.24,97,100,1.54,US,1691596495
113,Viransehir,37.2353,39.7631,39.51,13,0,3.96,TR,1691596973
114,Tolanaro,-25.0319,46.9987,21.04,83,20,7.2,MG,1691596678
115,Happy Valley-Goose Bay,53.3168,-60.3315,16.17,88,100,2.06,CA,1691596867
116,Kingston,17.997,-76.7936,31.8,73,20,4.12,JM,1691596259
117,Yaren,-0.5472,166.916,28.04,75,97,3.31,NR,1691596974
118,Kourou,5.1552,-52.6478,32.03,61,41,5.25,GF,1691596974
119,Stanley,54.868,-1.6985,19.6,70,20,3.6,GB,1691596679
120,Dalnerechensk,45.9339,133.7225,20.54,96,100,1.73,RU,1691596975
121,Palos De La Frontera,37.2346,-6.8947,30.16,46,39,2.68,ES,1691596438
122,Peniche,39.3558,-9.3811,25.72,78,22,3.86,PT,1691596975
123,Atafu Village,-8.5421,-172.5159,28.09,80,98,5.91,TK,1691596535
124,Orono,44.8831,-68.672,22.19,71,75,7.2,US,1691596976
125,Albany,42.6001,-73.9662,26.43,65,86,1.34,US,1691596970
126,Nemuro,43.3236,145.575,18.82,100,100,6.2,JP,1691596977
127,Patacamaya,-17.2333,-67.9167,12.66,30,0,1.55,BO,1691596978
128,Collie,-33.3667,116.15,7.03,92,96,0.7,AU,1691596980
129,Fort Bragg,35.139,-79.006,30.08,47,0,2.57,US,1691596984
130,Sitka,57.0531,-135.33,13.94,88,100,0.0,US,1691596820
131,Mahalapye,-23.1041,26.8142,18.88,23,0,5.82,BW,1691596986
132,Isla Vista,34.4133,-119.861,21.86,89,100,1.54,US,1691596993
133,Tshikapa,-6.4167,20.8,35.7,17,27,1.66,CD,1691596831
134,Vadso,70.0744,29.7487,28.49,61,20,4.12,NO,1691596680
135,Aasiaat,68.7098,-52.8699,4.81,76,38,2.13,GL,1691596995
136,Tual,-5.6667,132.75,25.43,80,64,8.98,ID,1691596995
137,Basco,20.4487,121.9702,28.47,85,31,11.69,PH,1691596996
138,Horta,38.5333,-28.6333,25.01,85,20,6.17,PT,1691596996
139,Kimbe,-5.5502,150.1429,25.14,79,39,4.47,PG,1691596997
140,Al Hufuf,25.3646,49.5653,44.19,5,0,4.12,SA,1691596997
141,Nuuk,64.1835,-51.7216,6.34,87,75,5.14,GL,1691596998
142,Margaret River,-33.95,115.0667,12.13,66,79,1.12,AU,1691596844
143,Aktau,43.65,51.2,31.32,53,0,4.06,KZ,1691596999
144,Lihue,21.9789,-159.3672,26.77,75,75,8.23,US,1691596981
145,Argo,37.6333,22.7333,29.32,42,55,1.31,GR,1691596999
146,Carandai,-20.9536,-43.8064,15.02,61,86,4.28,BR,1691596999
147,Tofol,5.3248,163.0078,27.28,78,67,3.8,FM,1691596999
148,Bandar Abbas,27.1865,56.2808,33.99,75,0,2.06,IR,1691597000
149,Gonabad,34.3529,58.6837,31.53,17,28,7.66,IR,1691597000
150,Sanchursk,56.9413,47.2499,22.91,63,0,3.12,RU,1691597000
151,Mount Pearl,47.5166,-52.7813,14.42,88,100,4.12,CA,1691596646
152,Brisas De Zicatela,15.8369,-97.0419,28.29,69,100,4.63,MX,1691597001
153,Narrabri,-30.3167,149.7833,10.08,62,97,2.01,AU,1691597001
154,Ghatanji,20.1333,78.3167,26.43,76,100,2.46,IN,1691597001
155,Iskateley,67.6803,53.1512,16.98,68,60,2.96,RU,1691597001
156,Ribeira Brava,32.65,-17.0667,28.34,78,1,0.76,PT,1691597002
157,Ola,59.5833,151.2833,11.19,69,98,4.74,RU,1691596753
158,Karratha,-20.7377,116.8463,21.24,66,0,1.12,AU,1691597002
159,Manuguru,17.981,80.7547,25.76,83,90,0.87,IN,1691597003
160,Margate,51.3813,1.3862,22.05,63,59,4.47,GB,1691596619
161,Kievka,50.2619,71.5514,24.59,40,99,4.8,KZ,1691597003
162,Bhimunipatnam,17.8833,83.4333,29.24,73,100,0.9,IN,1691596617
163,Mamuju,-2.6748,118.8885,25.49,86,33,2.68,ID,1691597003
164,Marka,1.7159,44.7717,24.38,84,9,6.96,SO,1691597004
165,Mocimboa,-11.3167,40.35,23.34,75,0,5.56,MZ,1691597004
166,Leninskoye,41.7589,69.3864,27.89,26,0,3.13,KZ,1691597004
167,Jalalabad,34.4265,70.4515,35.84,36,0,2.9,AF,1691597004
168,Dem'Yanovo,60.3511,47.0842,22.41,73,7,1.51,RU,1691597005
169,Severo-Yeniseyskiy,60.3725,93.0408,10.42,86,7,2.38,RU,1691597005
170,Yuzhno-Kurilsk,44.0306,145.8556,19.35,100,100,3.79,RU,1691596901
171,Bukama,-9.2,25.85,30.18,21,0,1.12,CD,1691597005
172,Fort St. John,56.2499,-120.8529,14.94,88,75,1.54,CA,1691596848
173,Hami,42.8,93.45,31.65,20,45,7.35,CN,1691596772
174,Vernon,50.2581,-119.2691,22.47,51,95,4.47,CA,1691596792
175,Rzhev,56.2624,34.3282,18.13,67,67,5.9,RU,1691597006
176,Marshfield,44.6689,-90.1718,23.14,68,0,1.54,US,1691596808
177,Miri,4.4148,114.0089,26.08,94,20,0.0,MY,1691597006
178,Pontianak,-0.0333,109.3333,24.99,88,40,1.03,ID,1691597007
179,Concepcion,-36.827,-73.0498,12.89,88,100,7.2,CL,1691596870
180,Vorgashor,67.5833,63.95,11.66,64,91,1.33,RU,1691596854
181,Constantia,44.1833,28.65,24.38,53,0,4.85,RO,1691596841
182,Novofedorivka,46.1713,32.3178,27.21,37,3,4.6,UA,1691597007
183,Armacao De Buzios,-22.7469,-41.8817,24.03,77,94,6.52,BR,1691597008
184,Ban Phan Don,17.1427,102.9726,28.0,84,100,2.17,TH,1691597008
185,Port Blair,11.6667,92.75,28.02,83,75,3.09,IN,1691596636
186,Pacasmayo,-7.4006,-79.5714,23.44,70,96,5.6,PE,1691597008
187,Usinsk,65.9939,57.5281,14.26,64,100,3.38,RU,1691596732
188,Utrik,11.2278,169.8474,28.06,74,33,5.31,MH,1691596507
189,Crane,31.3974,-102.3501,33.88,27,7,4.59,US,1691596545
190,Ghat,24.9647,10.1728,37.62,11,0,8.12,LY,1691597009
191,Sinabang,2.4803,96.3801,26.13,83,59,2.56,ID,1691596883
192,Chadron,42.8294,-102.9999,20.86,73,0,3.6,US,1691597010
193,Smithers,54.7804,-127.1743,13.18,100,75,0.0,CA,1691597010
194,Punta Arenas,-53.15,-70.9167,3.8,87,100,4.75,CL,1691596823
195,Tazovsky,67.4667,78.7,7.47,86,100,7.45,RU,1691596859
196,Ramacca,37.3881,14.6927,28.8,38,61,2.47,IT,1691597011
197,Cabinda,-5.55,12.2,23.89,75,88,4.46,AO,1691597011
198,Hadibu,12.65,54.0333,25.61,80,93,7.55,YE,1691597012
199,Belmonte,-15.8631,-38.8828,25.95,59,12,4.56,BR,1691596516
200,Bandarbeyla,9.4942,50.8122,24.15,83,62,13.34,SO,1691597012
201,Saudarkrokur,65.7461,-19.6394,9.51,66,12,6.08,IS,1691596936
202,Niquelandia,-14.4739,-48.4597,34.72,17,0,3.34,BR,1691596847
203,Tindouf,27.6711,-8.1474,45.25,9,0,11.32,DZ,1691597013
204,Londa,15.4691,74.5191,23.63,96,100,1.79,IN,1691597013
205,Arraial Do Cabo,-22.9661,-42.0278,23.92,69,40,7.2,BR,1691597013
206,Port Lincoln,-34.7333,135.8667,11.53,71,7,5.39,AU,1691596566
207,Acapulco De Juarez,16.8634,-99.8901,29.75,69,100,0.63,MX,1691596760
208,Tralee,52.2704,-9.7026,24.14,64,20,4.63,IE,1691597013
209,Ocean City,39.2776,-74.5746,29.54,54,1,2.68,US,1691596738
210,Northam,51.0333,-4.2167,19.58,86,91,2.0,GB,1691596563
211,Kongsberg,59.6652,9.6465,15.06,96,100,1.66,NO,1691597014
212,Marquette,46.5333,-87.6335,23.15,65,100,3.58,US,1691597014
213,Mount Gambier,-37.8333,140.7667,8.83,89,52,4.82,AU,1691597015
214,Viqueque,-8.8673,126.3658,22.49,90,64,1.42,TL,1691597015
215,San Patricio,28.017,-97.5169,34.48,43,2,7.69,US,1691596854
216,Kharja,32.6587,35.887,27.93,50,0,5.55,JO,1691597015
217,Zambezi,-13.5432,23.1047,26.86,18,0,2.45,ZM,1691596754
218,Zaozersk,69.4005,32.4476,22.16,72,7,2.55,RU,1691596855
219,Klaksvik,62.2266,-6.589,11.51,82,76,14.88,FO,1691597016
220,Messaad,34.1543,3.5031,40.43,8,9,9.32,DZ,1691597016
221,Guerrero Negro,27.9769,-114.0611,25.09,67,7,6.29,MX,1691597016
222,Tawau,4.2498,117.8871,26.07,94,79,1.1,MY,1691597016
223,Fale Old Settlement,-9.3852,-171.2468,28.13,78,22,6.35,TK,1691596882
224,Richlands,37.0932,-81.7937,24.43,78,75,3.6,US,1691597017
225,Al Hilaliyya,14.9398,33.234,34.69,36,50,3.46,SD,1691597017
226,Zheleznodorozhnyy,55.7503,38.0042,24.64,78,51,2.79,RU,1691597017
227,Bredasdorp,-34.5322,20.0403,13.23,93,0,4.16,ZA,1691596540
228,Moyynkum,44.2914,72.9469,31.56,25,4,4.51,KZ,1691597017
229,Cam Ranh,11.9214,109.1591,28.98,79,20,0.51,VN,1691597018
230,Ilebo,-4.3167,20.5833,29.89,47,88,1.09,CD,1691597018
231,Lata,40.1629,-8.3327,29.95,40,40,4.6,PT,1691597018
232,Vieste,41.8825,16.175,25.59,46,99,3.49,IT,1691596890
233,Badger,64.8,-147.5333,15.93,95,75,1.54,US,1691596552
234,Kavieng,-2.5744,150.7967,27.3,75,92,8.44,PG,1691597019
235,Alice Springs,-23.7,133.8833,9.75,57,0,2.57,AU,1691596514
236,Keflavik,64.0049,-22.5624,17.95,51,75,7.2,IS,1691597019
237,Huarmey,-10.0681,-78.1522,21.95,70,75,3.64,PE,1691597019
238,Tidjikja,18.5564,-11.4271,41.48,13,10,4.01,MR,1691597019
239,Porto Murtinho,-21.6989,-57.8825,34.8,34,0,0.51,BR,1691597020
240,San Benito,36.6166,-121.0844,11.35,43,0,1.33,US,1691597020
241,Weno,7.4515,151.8468,28.65,74,92,3.72,FM,1691596678
242,Kailua-Kona,19.6406,-155.9956,24.72,78,60,1.79,US,1691596876
243,Saint-Philippe,-21.3585,55.7679,21.77,79,36,3.85,RE,1691597020
244,Suomussalmi,64.8869,28.9078,20.0,76,68,0.97,FI,1691597021
245,Caluula,11.9661,50.7569,29.92,67,100,3.88,SO,1691597021
246,Brokopondo,4.75,-55.1667,30.95,57,58,0.64,SR,1691596646
247,Crucecita,-28.95,-58.9833,19.86,67,73,2.04,AR,1691597021
248,Petauke,-14.2426,31.3253,21.17,22,2,3.69,ZM,1691597022
249,Roma,43.2128,-75.4557,25.4,74,75,4.63,US,1691597022
250,Eagle River,45.9172,-89.2443,22.91,54,0,2.57,US,1691597022
251,Conception Bay South,47.4999,-52.9981,15.31,88,100,2.59,CA,1691596924
252,Tubarjal,30.4999,38.216,36.83,16,0,5.11,SA,1691597022
253,Nelidovo,56.2211,32.7774,17.06,70,100,1.63,RU,1691597023
254,Talnakh,69.4865,88.3972,20.67,56,69,4.9,RU,1691597023
255,Zaragoza,41.6561,-0.8773,38.58,28,0,3.6,ES,1691597023
256,Port Shepstone,-30.7414,30.455,18.55,76,96,4.17,ZA,1691597023
257,Moyale,3.5167,39.0584,23.33,51,98,4.22,KE,1691597023
258,Mesquite,32.7668,-96.5992,34.89,53,42,3.13,US,1691596724
259,Kirakira,-10.4544,161.9205,24.76,90,100,3.23,SB,1691597024
260,Walvis Bay,-22.9575,14.5053,13.38,73,21,3.9,NA,1691597024
261,Mashhad,36.297,59.6062,30.08,32,20,5.14,IR,1691597024
262,Puerto Baquerizo Moreno,-0.9,-89.6,25.55,78,75,6.17,EC,1691596545
263,Bakanas,44.8081,76.2772,29.09,27,0,2.96,KZ,1691597025
264,Nerekhta,57.4588,40.5747,20.94,69,58,4.85,RU,1691597026
265,Trairi,-3.2778,-39.2689,29.84,59,41,7.3,BR,1691597026
266,Egilsstadir,65.2653,-14.3948,9.95,71,75,5.14,IS,1691597026
267,Hamilton,39.1834,-84.5333,28.73,73,75,3.09,US,1691597014
268,Jimani,18.4917,-71.8502,32.94,45,5,2.35,DO,1691597026
269,Gorontalo,0.5412,123.0595,24.21,92,89,2.38,ID,1691596666
270,Faya-Largeau,17.9257,19.1043,37.21,32,67,2.53,TD,1691597027
271,Circasia,4.6189,-75.6358,21.05,51,42,1.3,CO,1691597027
272,Lionel Town,17.8101,-77.2406,31.94,55,5,4.64,JM,1691597027
273,Las Lomitas,-24.7096,-60.593,26.3,46,15,1.68,AR,1691597028
274,Porto Novo,6.4965,2.6036,26.9,73,64,6.34,BJ,1691596628
275,Colon,9.3592,-79.9014,26.1,84,97,3.73,PA,1691597028
276,Barao De Cocais,-19.9458,-43.4872,23.21,57,91,2.71,BR,1691597028
277,Broken Hill,-31.95,141.4333,12.69,44,0,6.56,AU,1691597029
278,Nadym,65.5333,72.5167,11.6,59,0,8.89,RU,1691597029
279,Kruisfontein,-34.0033,24.7314,16.6,84,34,7.28,ZA,1691597029
280,Bodo,67.28,14.405,22.75,42,0,9.26,NO,1691597029
281,Nar'Yan-Mar,67.6713,53.087,17.16,68,56,2.98,RU,1691597029
282,Lucon,46.4577,-1.1651,31.05,32,0,3.14,FR,1691597029
283,Lakatoro,-16.0999,167.4164,19.74,93,100,3.77,VU,1691597030
284,Katsuura,35.1333,140.3,26.84,89,0,6.26,JP,1691597030
285,Beipiao,41.7919,120.7792,20.43,72,66,1.7,CN,1691597030
286,Glace Bay,46.1969,-59.957,17.83,94,100,10.8,CA,1691597030
287,Myrina,39.8797,25.0742,26.58,50,0,5.14,GR,1691597030
288,Sauri,11.7266,6.7837,28.22,60,87,4.22,NG,1691597031
289,Malango,-2.9627,119.9001,19.96,98,97,0.28,ID,1691596872
290,Edgewater,28.9889,-80.9023,35.05,67,40,4.12,US,1691597031
291,Vilyeyka,54.4896,26.9062,16.78,78,79,2.89,BY,1691597031
292,Yeosu,34.7546,127.6599,25.49,89,100,13.33,KR,1691597031
293,Aral,40.5156,81.2636,30.62,24,7,8.46,CN,1691596858
294,Codrington,-38.2667,141.9667,10.7,84,96,8.15,AU,1691597031
295,Qamdo,31.1667,97.2333,9.53,66,61,0.47,CN,1691597032
296,Loudi,27.7344,111.9944,26.71,86,0,1.34,CN,1691597032
297,Birjand,32.8663,59.2211,30.26,15,0,6.17,IR,1691597032
298,Cannonvale,-20.2833,148.7,18.66,80,12,5.98,AU,1691597032
299,Primero De Mayo,-32.2552,-58.4228,19.19,56,19,2.59,AR,1691597032
300,Susuman,62.7833,148.1667,2.78,96,42,1.19,RU,1691596516
301,Rio Grande,-32.035,-52.0986,18.06,84,100,8.81,BR,1691596629
302,Luanda,-8.8368,13.2343,25.0,65,75,4.12,AO,1691596558
303,Gloversville,43.0528,-74.3438,25.23,80,100,6.31,US,1691597033
304,Molde,62.7375,7.1591,13.17,94,75,4.12,NO,1691597033
305,Saldanha,-33.0117,17.9442,24.03,79,0,4.29,ZA,1691596874
306,Isla Mujeres,21.2311,-86.731,33.03,69,27,3.36,MX,1691597034
307,Lincoln,40.8,-96.667,22.61,93,100,3.6,US,1691596820
308,Harstad,68.799,16.5293,22.91,51,100,8.05,NO,1691597034
309,Boa Vista,2.8197,-60.6733,29.99,66,40,3.6,BR,1691596865
310,Noshiro,40.2039,140.0242,26.39,86,11,2.94,JP,1691597034
311,Laojunmiao,39.8333,97.7333,19.84,55,12,1.98,CN,1691596855
312,New Norfolk,-42.7826,147.0587,12.72,64,100,2.16,AU,1691597035
313,Port Elizabeth,-33.918,25.5701,17.83,77,40,8.75,ZA,1691596398
314,Shizuishan,39.2333,106.7694,29.19,48,76,6.21,CN,1691597035
315,Nova Vicosa,-17.8919,-39.3719,25.57,62,8,4.03,BR,1691597036
316,Bayanhongor,46.7167,100.1167,10.94,85,22,0.98,MN,1691597036
317,El Alto,-4.2714,-81.2147,24.81,69,87,3.16,PE,1691596868
318,Port-Cartier,50.0334,-66.8654,15.42,98,100,5.6,CA,1691597036
319,Chos Malal,-37.3781,-70.2709,14.48,39,100,3.31,AR,1691597036
320,Shenjiamen,29.9576,122.298,27.08,89,2,5.35,CN,1691597036
321,Beloyarskiy,63.7119,66.6722,12.25,76,70,1.66,RU,1691597037
322,Zemio,5.0314,25.1361,23.79,89,99,1.1,CF,1691597037
323,Cockburn Town,21.4612,-71.1419,29.04,81,46,7.24,TC,1691596751
324,Anshun,26.25,105.9333,19.68,96,9,0.74,CN,1691597037
325,Cabo San Lucas,22.8909,-109.9124,34.78,70,0,8.23,MX,1691596228
326,Butterworth,5.3991,100.3638,29.02,88,40,3.13,MY,1691597037
327,Krasnobrodskiy,54.1581,86.4486,16.64,75,75,2.57,RU,1691597038
328,San Fernando,15.0286,120.6898,28.85,88,100,0.68,PH,1691597038
329,Adrar,20.5022,-10.0711,45.0,7,4,7.07,MR,1691597038
330,Taoudenni,22.6783,-3.9836,47.64,6,9,5.96,ML,1691597038
331,Poronaysk,49.2167,143.1167,14.23,93,100,0.79,RU,1691597039
332,Sur,22.5667,59.5289,31.01,70,27,1.72,OM,1691596846
333,Bugana,7.9992,7.5836,28.35,76,93,1.49,NG,1691597039
334,Mundri,-6.9558,111.71,23.58,78,88,2.67,ID,1691596522
335,Ilhabela,-23.7781,-45.3581,20.3,89,98,5.15,BR,1691596888
336,Mwene-Ditu,-7.0,23.45,30.52,21,1,1.28,CD,1691597039
337,Berdigestyakh,62.0989,126.6992,13.54,59,94,2.94,RU,1691597039
338,Gillette,44.2911,-105.5022,22.84,49,12,1.79,US,1691596810
339,Taksimo,56.3444,114.8794,18.51,63,97,0.9,RU,1691597040
340,Dexter,36.7959,-89.9579,21.92,75,100,5.99,US,1691596668
341,Flin Flon,54.7682,-101.865,12.91,58,20,3.6,CA,1691596771
342,Bubaque,11.2833,-15.8333,27.55,77,100,2.46,GW,1691597040
343,Kentville,45.0835,-64.4988,25.01,83,100,2.57,CA,1691597041
344,Longquan,24.6719,102.1613,19.55,96,97,1.59,CN,1691597042
345,Praia Da Vitoria,38.7333,-27.0667,28.14,69,20,6.24,PT,1691597042
346,Chardara,41.2547,67.9692,29.56,31,0,4.29,KZ,1691597042
347,Senador Pompeu,-5.5881,-39.3717,33.71,32,64,3.39,BR,1691597043
348,Penn Yan,42.6609,-77.0539,26.62,59,20,4.92,US,1691597043
349,Ejutla De Crespo,16.5667,-96.7333,21.53,55,95,0.98,MX,1691597043
350,Gunjur,13.2019,-16.7339,32.04,62,75,3.09,GM,1691597044
351,Forbes,-33.3833,148.0167,7.64,70,27,3.6,AU,1691597044
352,Al Jawf,29.5,38.75,37.49,12,0,3.69,SA,1691597044
353,Carauari,-4.8828,-66.8958,35.1,43,32,1.55,BR,1691597045
354,Nyurba,63.2842,118.3319,17.82,52,0,3.31,RU,1691597045
355,Ouesso,1.6136,16.0517,26.65,74,99,0.68,CG,1691597045
356,Carbonear,47.7332,-53.2148,15.69,86,100,3.54,CA,1691597046
357,Sosnovo-Ozerskoye,52.5249,111.5418,16.11,91,100,1.3,RU,1691597046
358,Novo Aripuana,-5.1206,-60.3797,38.11,27,6,2.27,BR,1691597046
359,Gueckedou,8.6667,-10.25,25.76,84,100,2.03,GN,1691597046
360,Oranjemund,-28.55,16.4333,21.75,41,0,5.29,NA,1691596881
361,Lazaro Cardenas,17.9583,-102.2,30.77,69,43,0.63,MX,1691597047
362,Luxeuil-Les-Bains,47.8171,6.365,23.51,60,75,2.57,FR,1691597047
363,Tangalle,6.024,80.7911,29.09,85,99,4.37,LK,1691597048
364,Xinyuan,37.3,99.0,12.88,86,97,0.73,CN,1691597048
365,Lompoc,34.6391,-120.4579,17.74,84,100,0.0,US,1691596868
366,Mana,5.6592,-53.7767,30.6,65,52,5.02,GF,1691597048
367,Hobyo,5.3505,48.5268,25.06,81,44,11.15,SO,1691597048
368,Jiagedaqi,50.4167,124.1167,15.15,97,70,2.07,CN,1691597049
369,Aitape,-3.1374,142.3475,25.38,89,66,2.08,PG,1691597049
370,Rahatgarh,23.7833,78.3667,24.77,81,100,4.99,IN,1691597049
371,La Foa,-21.7108,165.8276,16.27,78,49,3.05,NC,1691597050
372,Tulun,54.5611,100.5792,16.23,80,100,1.93,RU,1691597050
373,Thunder Bay,48.4001,-89.3168,19.99,68,40,4.12,CA,1691596354
374,Sechura,-5.5569,-80.8222,25.62,62,86,3.1,PE,1691597050
375,Palapye,-22.546,27.1251,18.9,23,0,6.09,BW,1691597050
376,Bokovskaya,49.229,41.8306,28.52,46,59,3.59,RU,1691597051
377,Penedo,-10.2903,-36.5864,25.51,76,58,5.12,BR,1691597051
378,Lospalos,-8.5186,127.0025,19.77,96,56,1.93,TL,1691597052
379,Callao,-12.0667,-77.15,24.84,73,75,2.57,PE,1691597052
380,Mugia,43.1041,-9.2179,24.95,85,80,8.18,ES,1691596885
381,Sungai Raya,0.7,108.9,26.44,87,20,2.92,ID,1691597053
382,Zhob,31.3411,69.4481,32.85,26,74,6.33,PK,1691597053
383,Charters Towers,-20.1,146.2667,14.63,84,26,3.96,AU,1691597054
384,Watseka,40.7762,-87.7364,26.23,75,54,0.45,US,1691597054
385,Burang,30.25,81.1667,12.63,87,95,2.25,CN,1691597054
386,Luderitz,-26.6481,15.1594,22.72,45,65,1.35,NA,1691597055
387,Al Ghayzah,16.2079,52.176,26.24,87,82,5.95,YE,1691597055
388,Guajara Mirim,-10.7828,-65.3394,31.09,62,0,2.57,BR,1691597056
389,Enewetak,11.3474,162.3373,28.24,77,97,5.57,MH,1691597056
390,Tocopilla,-22.092,-70.1979,20.32,68,16,3.55,CL,1691597024
391,Shimanovsk,52.0,127.7,17.87,70,99,0.5,RU,1691597056
392,Leava,-14.3,-178.1667,27.01,79,28,3.68,WF,1691597057
393,Darwin,-12.4611,130.8418,23.99,78,100,1.34,AU,1691596810
394,Namsos,64.4662,11.4957,20.95,40,3,9.77,NO,1691597057
395,Dakhla,23.6848,-15.958,25.01,73,7,11.83,EH,1691597057
396,Thatta,24.7475,67.9235,28.73,72,100,9.32,PK,1691597058
397,Port-Vila,-17.7338,168.3219,20.72,66,100,7.24,VU,1691596898
398,Yamada,39.4667,141.95,26.05,89,83,5.41,JP,1691597058
399,Masina,-4.3836,15.3914,27.19,57,20,5.14,CD,1691597059
400,Hays,30.0502,-98.0336,33.38,64,0,3.13,US,1691597059
401,Jiayuguan,39.8167,98.3,24.03,49,33,2.0,CN,1691597059
402,La Ronge,55.1001,-105.2842,15.14,72,40,1.54,CA,1691596873
403,Bonthe,7.5264,-12.505,26.14,85,98,5.68,SL,1691597060
404,Siwa Oasis,29.2041,25.5195,36.33,21,0,4.54,EG,1691597060
405,Nahiyat Ash Shinafiyah,31.5874,44.6602,43.98,8,0,3.81,IQ,1691597060
406,Cestos City,5.46,-9.5828,25.98,81,85,7.19,LR,1691597061
407,Boyolangu,-8.1181,111.8935,22.2,93,100,1.79,ID,1691596844
408,Port Pirie,-33.1833,138.0167,10.84,92,59,3.54,AU,1691597061
409,Buka,40.8108,69.1986,29.52,23,0,3.05,UZ,1691597062
410,Mayya,61.7333,130.2811,10.62,63,2,2.56,RU,1691596588
411,Pisco,-13.7,-76.2167,20.03,77,100,0.51,PE,1691596841
412,Galliano,29.4422,-90.2992,33.33,58,40,4.12,US,1691597062
413,Coquimbo,-29.9533,-71.3436,14.85,82,0,3.6,CL,1691596834
414,Upington,-28.4478,21.2561,28.21,9,0,2.57,ZA,1691597063
415,Manismata,-2.4667,111.0333,22.51,89,41,1.31,ID,1691597063
416,Moires,35.0532,24.8744,28.4,42,0,8.05,GR,1691597064
417,As Salamiyah,35.0113,37.0532,32.99,34,0,6.58,SY,1691597064
418,Omdurman,15.6445,32.4777,36.02,32,59,4.89,SD,1691597065
419,Val-Des-Monts,45.6501,-75.666,26.34,70,20,5.14,CA,1691596860
420,Lashio,22.9333,97.75,19.97,98,100,0.65,MM,1691597065
421,Chimoio,-19.1164,33.4833,19.97,56,75,2.48,MZ,1691597066
422,East London,-33.0153,27.9116,17.52,72,75,5.66,ZA,1691597066
423,Lloydminster,53.2835,-110.0016,12.12,94,100,4.12,CA,1691597066
424,Jurilovca,44.7667,28.8667,26.13,49,0,5.35,RO,1691597066
425,Chinchilla,-26.75,150.6333,10.11,88,1,2.96,AU,1691597067
426,Usevia,-7.1,31.2333,26.33,29,19,1.96,TZ,1691597067
427,Alofi,-19.0595,-169.9187,24.94,94,22,1.54,NU,1691596613
428,Tsengel,49.4783,100.8894,15.18,90,78,0.47,MN,1691597067
429,Tannum Sands,-23.9504,151.3693,15.42,77,4,2.06,AU,1691597068
430,Tha Bo,17.85,102.5814,25.94,61,40,0.0,TH,1691597068
431,Sardarshahr,28.4333,74.4833,34.23,42,17,8.94,IN,1691596629
432,Torghay,49.6339,63.4981,26.49,39,17,5.98,KZ,1691597068
433,Buritis,-15.6178,-46.4233,31.81,28,0,3.92,BR,1691596972
434,Luwuk,-0.9516,122.7875,24.52,88,99,2.3,ID,1691597069
435,Wenshui,28.4506,106.5267,22.52,90,18,1.5,CN,1691597069
436,Owen Sound,44.5672,-80.9435,26.09,65,2,4.02,CA,1691596799
437,Capinota,-17.7167,-66.2333,26.67,25,0,2.33,BO,1691597070
438,Timimoun,29.2639,0.231,44.21,6,0,8.23,DZ,1691597070
439,Kavaratti,10.5669,72.642,27.94,78,100,7.2,IN,1691597070
440,Revda,56.801,59.9303,19.85,67,42,1.88,RU,1691597071
441,Preobrazheniye,42.9019,133.9064,18.76,97,100,4.97,RU,1691597071
442,Gereshk,31.8209,64.5701,34.24,10,0,3.02,AF,1691597071
443,Kapa'A,22.0752,-159.319,27.18,81,75,8.23,US,1691597071
444,Vorkuta,67.5,64.0,11.66,63,99,2.01,RU,1691596880
445,Natal,-5.795,-35.2094,25.36,94,75,8.23,BR,1691596846
446,Kidal,18.4411,1.4078,39.8,20,28,4.41,ML,1691597072
447,Meadow Lake,34.8014,-106.5436,27.06,49,35,3.69,US,1691597072
448,Vanimo,-2.6741,141.3028,25.96,89,74,2.26,PG,1691597072
449,Iquique,-20.2208,-70.1431,20.02,69,1,3.33,CL,1691597072
450,Murzuq,25.9155,13.9184,35.27,13,0,6.73,LY,1691597073
451,Ancud,-41.8697,-73.8203,11.21,91,100,8.89,CL,1691596882
452,Vila Velha,-20.3297,-40.2925,24.41,82,40,5.66,BR,1691597073
453,Bikenibeu Village,1.3673,173.1241,25.98,89,40,1.03,KI,1691597073
454,Bondo,3.8146,23.6866,24.33,80,96,0.64,CD,1691597073
455,Swakopmund,-22.6833,14.5333,13.32,88,33,0.89,NA,1691597074
456,Mata-Utu,-13.2816,-176.1745,27.65,76,64,4.61,WF,1691597074
457,Astrakhan,46.3497,48.0408,36.93,25,40,3.13,RU,1691597074
458,Hirara,24.8,125.2833,27.15,94,75,1.03,JP,1691597074
459,Sayansk,54.1088,102.1648,16.39,92,100,1.4,RU,1691597075
460,Elliot,-31.3333,27.85,11.03,70,1,2.07,ZA,1691597075
461,Sao Tome,0.3365,6.7273,24.66,81,73,4.88,ST,1691597075
462,Axim,4.8699,-2.2405,24.62,83,100,5.29,GH,1691597075
463,Savannakhet,16.566,104.751,25.0,90,95,2.19,LA,1691597075
464,Asind,25.7333,74.3333,26.09,75,90,4.6,IN,1691597076
465,Kerikeri,-35.2268,173.9474,6.69,92,7,1.85,NZ,1691597076
466,Bor,56.3567,44.0669,26.63,62,0,2.69,RU,1691597043
467,Khandyga,62.6667,135.6,11.93,66,6,0.16,RU,1691596657
468,Bardai,11.65,7.2333,26.56,68,94,3.66,NG,1691596605
469,Puerto Aysen,-45.4,-72.7,7.02,100,100,0.0,CL,1691597077
470,Vilyuchinsk,52.9306,158.4028,14.15,76,100,4.61,RU,1691597077
471,Queenstown,-31.8976,26.8753,15.44,49,0,3.87,ZA,1691596884
472,Kzyltu,53.6364,72.3414,22.92,35,69,0.39,KZ,1691597077
473,Polyarnyy,69.1989,33.4478,23.78,62,1,1.68,RU,1691596644
474,Aswan,24.0934,32.907,44.61,12,0,4.63,EG,1691596682
475,Visakhapatnam,17.69,83.2093,30.52,64,100,2.28,IN,1691597057
476,Zaraza,9.3503,-65.3245,32.94,53,18,2.61,VE,1691597078
477,Choibalsan,48.0667,114.5,18.93,57,23,3.78,MN,1691597078
478,Putian,25.4394,119.0103,27.12,92,19,0.56,CN,1691597008
479,Gizo,-8.103,156.8419,26.44,80,95,9.08,SB,1691597079
480,Pacific Grove,36.6177,-121.9166,16.05,93,100,2.57,US,1691597079
481,Playa Del Ingles,27.7567,-15.5787,27.86,70,0,1.79,ES,1691597079
482,Mezhova,48.2532,36.7347,26.35,41,100,4.36,UA,1691597079
483,Hithadhoo,-0.6,73.0833,27.65,72,73,0.72,MV,1691597079
484,Klin,56.3333,36.7333,20.09,79,57,2.87,RU,1691597080
485,Hailar,49.2,119.7,13.77,91,58,2.6,CN,1691597080
486,Dunedin,-45.8742,170.5036,3.78,72,78,4.02,NZ,1691596605
487,Eirunepe,-6.6603,-69.8736,35.05,39,54,1.11,BR,1691597080
488,Prado,-17.3411,-39.2208,25.5,61,14,3.96,BR,1691597029
489,Pindobacu,-10.7417,-40.3608,29.96,34,63,6.07,BR,1691597081
490,San Antonio De Pale,-1.4014,5.6325,23.98,78,100,4.53,GQ,1691596857
491,Thoothukudi,8.8054,78.1453,28.48,76,100,1.67,IN,1691597081
492,Nova Sintra,14.8667,-24.7167,22.91,72,26,6.2,CV,1691597081
493,Ippy,6.2679,21.2247,24.09,86,81,1.61,CF,1691596841
494,Kohat,33.582,71.4493,33.04,40,4,2.16,PK,1691597081
495,Undurkhaan,47.3194,110.6556,20.16,57,81,3.32,MN,1691597082
496,Gastouni,37.85,21.25,30.04,48,20,4.12,GR,1691597082
497,Masuguru,-11.3667,38.4167,28.16,28,22,4.09,TZ,1691597082
498,Sao Francisco,-15.9486,-44.8644,31.8,24,0,4.05,BR,1691597082
499,Ugoofaaru,5.6667,73.0,28.38,77,100,6.86,MV,1691596890
500,Hafar Al-Batin,28.4328,45.9708,45.32,7,0,5.14,SA,1691597083
501,Tucurui,-3.7661,-49.6725,36.31,36,21,2.43,BR,1691597042
502,Mikun',62.3547,50.0771,21.65,65,12,0.89,RU,1691597083
503,Cabedelo,-6.9811,-34.8339,29.37,71,51,8.41,BR,1691597083
504,Gaalkacyo,6.7697,47.4308,31.27,36,100,8.76,SO,1691597083
505,La Passe,45.5549,-0.8967,32.23,23,0,3.24,FR,1691597083
506,Vila Franca Do Campo,37.7167,-25.4333,24.23,85,92,6.92,PT,1691597084
507,Blacksburg,37.2296,-80.4139,26.09,70,40,4.12,US,1691596820
508,Murakami,38.2333,139.4833,26.96,79,36,3.52,JP,1691597084
509,Yellandu,17.6,80.3333,25.81,81,99,1.32,IN,1691597085
510,Tanjung Pandan,-2.75,107.65,24.49,80,75,2.82,ID,1691597085
511,Road Town,18.4167,-64.6167,32.05,74,20,5.66,VG,1691597067
512,Karaton,-6.3424,106.1045,23.15,89,88,0.83,ID,1691597085
513,Chak Two Hundred Forty-Nine Thal Development Authority,31.1796,71.2095,40.57,25,50,6.85,PK,1691597002
514,Ranau,5.9538,116.6641,21.15,84,54,0.9,MY,1691597085
515,Ouddorp,51.8117,3.9347,20.55,57,37,5.12,NL,1691597086
516,Padang,-0.9492,100.3543,25.03,89,73,1.16,ID,1691596828
517,Cruzeiro Do Sul,-29.5128,-51.9853,16.96,89,100,1.15,BR,1691596869
518,Rawson,-43.3002,-65.1023,20.2,31,84,11.1,AR,1691597086
519,Moree,-29.4667,149.85,10.85,58,99,4.01,AU,1691597087
520,Mehran,33.1222,46.1646,40.85,10,1,1.4,IR,1691597087
521,Ondjiva,-17.0667,15.7333,28.71,14,19,0.91,AO,1691597087
522,Emerald,-23.5333,148.1667,10.75,68,0,3.45,AU,1691596362
523,Kill Devil Hills,36.0307,-75.676,29.0,65,0,3.09,US,1691597088
524,Novodvinsk,64.4165,40.8122,22.73,60,0,1.55,RU,1691597088
525,Svetlyy,54.675,20.1347,18.03,54,69,2.15,RU,1691597088
526,Ponta Delgada,37.7333,-25.6667,24.4,94,75,6.69,PT,1691597089
527,Pekanbaru,0.5333,101.45,25.18,94,20,2.06,ID,1691596647
528,Novyy Rogachik,48.6768,44.0608,31.5,26,43,3.0,RU,1691597089
529,Virginia,37.5481,-77.4467,30.75,51,20,3.6,US,1691596948
530,Northfield,44.4583,-93.1616,26.79,62,0,2.06,US,1691597089
531,San Julian,21.0167,-102.1667,22.03,50,2,1.54,MX,1691597089
532,Igarka,67.4667,86.5833,14.79,95,100,5.04,RU,1691597090
533,Malvan,16.0667,73.4667,26.59,83,79,3.26,IN,1691597090
534,Lijiang,26.8688,100.2207,16.15,94,71,0.52,CN,1691597090
535,Tamandare,-8.7597,-35.1047,27.04,59,18,4.88,BR,1691597090
536,Muscat,23.6139,58.5922,33.73,59,22,0.52,OM,1691596674
537,Kangding,30.0513,101.9603,17.44,97,99,1.16,CN,1691597091
538,Dapa,9.7594,126.0531,28.38,73,97,4.86,PH,1691597091
539,Ketchikan,55.3422,-131.6461,14.26,94,100,6.17,US,1691597091
540,Lesozavodsk,45.4794,133.4244,20.83,96,100,1.98,RU,1691597091
541,Sisimiut,66.9395,-53.6735,7.2,72,100,3.22,GL,1691597092
542,Socorro,31.6546,-106.3033,30.73,34,2,3.42,US,1691596874
543,Evergreen,39.6333,-105.3172,21.2,46,0,0.45,US,1691597092
544,Bowen,-20.0167,148.2333,16.76,88,4,4.35,AU,1691597092
545,Launceston,-41.45,147.1667,11.86,81,75,6.69,AU,1691597093
546,Beinamar,8.6698,15.3813,21.29,98,100,1.41,TD,1691597093
547,Ust'-Kulom,61.6864,53.6902,19.48,63,42,1.84,RU,1691597093
548,Nanao,37.05,136.9667,29.07,83,96,1.2,JP,1691597093
549,Bairnsdale,-37.8333,147.6167,15.03,54,100,0.89,AU,1691597094
550,Berrechid,33.2655,-7.5875,26.83,78,0,7.2,MA,1691597094
551,Salinopolis,-0.6136,-47.3561,29.47,66,4,6.1,BR,1691597094
552,Howrah,22.5892,88.3103,31.0,79,75,0.0,IN,1691597094
553,Al Bayda',32.7627,21.7551,22.52,65,0,8.67,LY,1691597094
554,Togur,58.3631,82.8265,13.92,87,49,2.6,RU,1691597095
555,Illapel,-31.6308,-71.1653,21.41,46,100,1.75,CL,1691597095
556,Mandali,33.7499,45.5541,41.53,9,0,1.5,IQ,1691597095
557,Ulsteinvik,62.3432,5.8487,13.75,89,100,4.02,NO,1691597095
558,Ventura,34.4667,-119.0176,17.02,85,46,1.89,US,1691596796
559,Bodaybo,57.8506,114.1933,18.64,68,53,1.26,RU,1691597095
560,Ceerigaabo,10.6162,47.368,22.02,48,100,9.19,SO,1691597096
561,Bac Lieu,9.285,105.7244,27.39,80,2,5.64,VN,1691596885
562,Zyryanskoye,56.8306,86.6258,14.53,82,51,2.9,RU,1691597096
563,Maracacume,-2.0428,-45.9592,31.35,54,35,2.95,BR,1691597096
564,Inari,68.906,27.0288,24.11,72,48,2.27,FI,1691596891
565,Cill Airne,52.05,-9.5167,24.03,64,20,4.63,IE,1691597096
566,Porkhov,57.765,29.5561,20.81,47,96,1.67,RU,1691597096
567,Tashtyp,52.7939,89.8983,15.93,75,100,2.17,RU,1691597097
568,Santa Ana De Yacuma,-13.75,-65.4333,29.97,42,43,3.09,BO,1691597097
569,Maardu,59.4767,25.025,20.34,53,40,6.71,EE,1691597097
570,Tromso,69.6496,18.957,23.01,40,0,6.69,NO,1691596664
571,Leer,53.2316,7.461,21.08,67,26,0.45,DE,1691597097
572,Thinadhoo,0.5333,72.9333,27.45,74,34,1.4,MV,1691597098
573,Quelimane,-17.8786,36.8883,23.97,60,75,3.13,MZ,1691597103
574,Tazacorte,28.629,-17.9293,26.75,81,20,5.66,ES,1691597103
575,Alushta,44.6667,34.4167,25.3,58,0,0.7,UA,1691597103
576,Arboga,59.3939,15.8388,13.94,94,100,5.81,SE,1691597104
577,Rikaze,29.25,88.8833,18.42,49,70,2.71,CN,1691597104
578,Fada,9.5667,8.3,24.6,79,83,2.05,NG,1691597104
579,Pechora,65.1472,57.2244,17.71,61,41,2.85,RU,1691597105
580,Leopoldshohe,52.0125,8.6983,20.85,64,56,2.36,DE,1691597105
581,Piti Village,13.4626,144.6933,26.84,94,100,3.6,GU,1691597105
582,Sitangkai,4.6628,119.3928,28.63,74,70,2.36,PH,1691597106
583,Kilindoni,-7.9139,39.6668,24.66,79,3,8.1,TZ,1691597106
584,Remire-Montjoly,4.9167,-52.2667,32.02,62,40,4.12,GF,1691597106
585,Nema,57.5067,50.5011,22.05,65,5,2.73,RU,1691597107
586,Nueve De Julio,-35.4444,-60.8831,15.54,66,65,3.58,AR,1691596946
587,Manado,1.487,124.8455,25.43,83,20,1.54,ID,1691597107
588,Ron Phibun,8.1791,99.8542,29.83,88,15,2.05,TH,1691597107
